myCountryCallback(
[
  {
    "key": "United Kingdom",
    "latitude": 55.378051,
    "longitude": -3.435973,
    "name": "United Kingdom"
  },
  {
    "key": "Ireland",
    "latitude": 53.41291,
    "longitude": -8.24389,
    "name": "Ireland"
  },
  {
    "key": "Netherlands",
    "latitude": 52.132633,
    "longitude": 5.291266,
    "name": "Netherlands"
  },
   {
    "key": "Germany",
    "latitude": 51.165691,
    "longitude": 10.451526,
    "name": "Germany"
  },
  {
    "key": "France",
    "latitude": 46.227638,
    "longitude": 2.213749,
    "name": "France"
  },
  {
    "key": "Switzerland",
    "latitude": 46.818188,
    "longitude": 8.227512,
    "name": "Switzerland"
  }
]);
